{
  "hotspots": [
    {
      "zone_id": "anand_vihar",
      "name": "Anand Vihar",
      "name_hi": "\u0906\u0928\u0902\u0926 \u0935\u093f\u0939\u093e\u0930",
      "lat": 28.6469,
      "lon": 77.3152,
      "aqi": 205.0,
      "firms_detections": 0,
      "photo_severity": 0.9,
      "photo_count": 3,
      "photo_type": "smoke",
      "hotspot_score": 0.385
    },
    {
      "zone_id": "rk_puram",
      "name": "R.K. Puram",
      "name_hi": "\u0906\u0930.\u0915\u0947. \u092a\u0941\u0930\u092e",
      "lat": 28.5644,
      "lon": 77.177,
      "aqi": 158.0,
      "firms_detections": 0,
      "photo_severity": 0.8,
      "photo_count": 1,
      "photo_type": "smoke",
      "hotspot_score": 0.318
    },
    {
      "zone_id": "punjabi_bagh",
      "name": "Punjabi Bagh",
      "name_hi": "\u092a\u0902\u091c\u093e\u092c\u0940 \u092c\u093e\u0917",
      "lat": 28.6692,
      "lon": 77.131,
      "aqi": 206.0,
      "firms_detections": 0,
      "photo_severity": 0.0,
      "photo_count": 0,
      "photo_type": "none",
      "hotspot_score": 0.206
    },
    {
      "zone_id": "ito",
      "name": "ITO",
      "name_hi": "\u0906\u0908\u091f\u0940\u0913",
      "lat": 28.6304,
      "lon": 77.2497,
      "aqi": 176.0,
      "firms_detections": 0,
      "photo_severity": 0.0,
      "photo_count": 0,
      "photo_type": "none",
      "hotspot_score": 0.176
    },
    {
      "zone_id": "dwarka",
      "name": "Dwarka Sector 8",
      "name_hi": "\u0926\u094d\u0935\u093e\u0930\u0915\u093e \u0938\u0947\u0915\u094d\u091f\u0930 8",
      "lat": 28.571,
      "lon": 77.072,
      "aqi": 158.0,
      "firms_detections": 0,
      "photo_severity": 0.0,
      "photo_count": 0,
      "photo_type": "none",
      "hotspot_score": 0.158
    },
    {
      "zone_id": "rohini",
      "name": "Rohini",
      "name_hi": "\u0930\u094b\u0939\u093f\u0923\u0940",
      "lat": 28.733,
      "lon": 77.12,
      "aqi": 176.0,
      "firms_detections": 0,
      "photo_severity": 0.0,
      "photo_count": 0,
      "photo_type": "none",
      "hotspot_score": 0.176
    },
    {
      "zone_id": "okhla",
      "name": "Okhla Phase 2",
      "name_hi": "\u0913\u0916\u0932\u093e \u092b\u0947\u091c\u093c 2",
      "lat": 28.5355,
      "lon": 77.2726,
      "aqi": 137.5,
      "firms_detections": 0,
      "photo_severity": 0.0,
      "photo_count": 0,
      "photo_type": "none",
      "hotspot_score": 0.138
    },
    {
      "zone_id": "wazirpur",
      "name": "Wazirpur",
      "name_hi": "\u0935\u091c\u093c\u0940\u0930\u092a\u0941\u0930",
      "lat": 28.6997,
      "lon": 77.165,
      "aqi": 209.5,
      "firms_detections": 0,
      "photo_severity": 0.9,
      "photo_count": 3,
      "photo_type": "garbage_burning",
      "hotspot_score": 0.39
    },
    {
      "zone_id": "vivek_vihar",
      "name": "Vivek Vihar",
      "name_hi": "\u0935\u093f\u0935\u0947\u0915 \u0935\u093f\u0939\u093e\u0930",
      "lat": 28.6725,
      "lon": 77.3151,
      "aqi": null,
      "firms_detections": 0,
      "photo_severity": 0.0,
      "photo_count": 0,
      "photo_type": "none",
      "hotspot_score": 0.0
    },
    {
      "zone_id": "noida_sec62",
      "name": "Noida Sector 62",
      "name_hi": "\u0928\u094b\u090f\u0921\u093e \u0938\u0947\u0915\u094d\u091f\u0930 62",
      "lat": 28.6274,
      "lon": 77.363,
      "aqi": 121.5,
      "firms_detections": 0,
      "photo_severity": 0.0,
      "photo_count": 0,
      "photo_type": "none",
      "hotspot_score": 0.121
    },
    {
      "zone_id": "gurugram_sec51",
      "name": "Gurugram Sector 51",
      "name_hi": "\u0917\u0941\u0930\u0941\u0917\u094d\u0930\u093e\u092e \u0938\u0947\u0915\u094d\u091f\u0930 51",
      "lat": 28.4425,
      "lon": 77.0722,
      "aqi": null,
      "firms_detections": 0,
      "photo_severity": 0.0,
      "photo_count": 0,
      "photo_type": "none",
      "hotspot_score": 0.0
    },
    {
      "zone_id": "ghaziabad_sanjay_nagar",
      "name": "Ghaziabad Sanjay Nagar",
      "name_hi": "\u0917\u093c\u093e\u091c\u093c\u093f\u092f\u093e\u092c\u093e\u0926 \u0938\u0902\u091c\u092f \u0928\u0917\u0930",
      "lat": 28.6825,
      "lon": 77.4519,
      "aqi": 141.5,
      "firms_detections": 0,
      "photo_severity": 0.0,
      "photo_count": 0,
      "photo_type": "none",
      "hotspot_score": 0.141
    }
  ]
}