{
  "hotspots": [
    { "zone_id": "anand_vihar", "name": "Anand Vihar", "lat": 28.6469, "lon": 77.3152, "aqi": 412, "firms_detections": 2, "photo_severity": 0.8, "hotspot_score": 0.83, "predicted_aqi_24h": 440 },
    { "zone_id": "rk_puram", "name": "R.K. Puram", "lat": 28.5644, "lon": 77.1770, "aqi": 210, "firms_detections": 0, "photo_severity": 0.1, "hotspot_score": 0.32, "predicted_aqi_24h": 225 },
    { "zone_id": "punjabi_bagh", "name": "Punjabi Bagh", "lat": 28.6692, "lon": 77.1310, "aqi": 305, "firms_detections": 1, "photo_severity": 0.4, "hotspot_score": 0.56, "predicted_aqi_24h": 320 },
    { "zone_id": "ito", "name": "ITO", "lat": 28.6304, "lon": 77.2497, "aqi": 260, "firms_detections": 0, "photo_severity": 0.2, "hotspot_score": 0.38, "predicted_aqi_24h": 270 },
    { "zone_id": "dwarka", "name": "Dwarka Sector 8", "lat": 28.5710, "lon": 77.0720, "aqi": 180, "firms_detections": 0, "photo_severity": 0.0, "hotspot_score": 0.18, "predicted_aqi_24h": 190 },
    { "zone_id": "rohini", "name": "Rohini", "lat": 28.7330, "lon": 77.1200, "aqi": 330, "firms_detections": 1, "photo_severity": 0.3, "hotspot_score": 0.55, "predicted_aqi_24h": 350 },
    { "zone_id": "okhla", "name": "Okhla Phase 2", "lat": 28.5355, "lon": 77.2726, "aqi": 295, "firms_detections": 1, "photo_severity": 0.5, "hotspot_score": 0.58, "predicted_aqi_24h": 310 },
    { "zone_id": "wazirpur", "name": "Wazirpur", "lat": 28.6997, "lon": 77.1650, "aqi": 380, "firms_detections": 3, "photo_severity": 0.7, "hotspot_score": 0.79, "predicted_aqi_24h": 400 },
    { "zone_id": "vivek_vihar", "name": "Vivek Vihar", "lat": 28.6725, "lon": 77.3151, "aqi": 250, "firms_detections": 0, "photo_severity": 0.2, "hotspot_score": 0.35, "predicted_aqi_24h": 260 },
    { "zone_id": "noida_sec62", "name": "Noida Sector 62", "lat": 28.6274, "lon": 77.3630, "aqi": 220, "firms_detections": 0, "photo_severity": 0.1, "hotspot_score": 0.28, "predicted_aqi_24h": 230 },
    { "zone_id": "gurugram_sec51", "name": "Gurugram Sector 51", "lat": 28.4425, "lon": 77.0722, "aqi": 195, "firms_detections": 0, "photo_severity": 0.0, "hotspot_score": 0.2, "predicted_aqi_24h": 200 },
    { "zone_id": "ghaziabad_sanjay_nagar", "name": "Ghaziabad Sanjay Nagar", "lat": 28.6825, "lon": 77.4519, "aqi": 340, "firms_detections": 2, "photo_severity": 0.5, "hotspot_score": 0.63, "predicted_aqi_24h": 355 }
  ],
  "note": "SAMPLE DATA for local preview/demo only — real values are written here by scripts/run_pipeline.py once CPCB/FIRMS/weather API keys are configured (Day 1)."
}
