{
  "hotspots": [
    {
      "zone_id": "anand_vihar",
      "name": "Anand Vihar",
      "lat": 28.6469,
      "lon": 77.3152,
      "aqi": 145.5,
      "firms_detections": 0,
      "photo_severity": 0.0,
      "hotspot_score": 0.145,
      "predicted_aqi_24h": 161.2
    },
    {
      "zone_id": "rk_puram",
      "name": "R.K. Puram",
      "lat": 28.5644,
      "lon": 77.177,
      "aqi": 136.0,
      "firms_detections": 0,
      "photo_severity": 0.0,
      "hotspot_score": 0.136,
      "predicted_aqi_24h": 254.4
    },
    {
      "zone_id": "punjabi_bagh",
      "name": "Punjabi Bagh",
      "lat": 28.6692,
      "lon": 77.131,
      "aqi": 106.5,
      "firms_detections": 0,
      "photo_severity": 0.0,
      "hotspot_score": 0.106,
      "predicted_aqi_24h": 128.5
    },
    {
      "zone_id": "ito",
      "name": "ITO",
      "lat": 28.6304,
      "lon": 77.2497,
      "aqi": 106.0,
      "firms_detections": 0,
      "photo_severity": 0.0,
      "hotspot_score": 0.106,
      "predicted_aqi_24h": 136.3
    },
    {
      "zone_id": "dwarka",
      "name": "Dwarka Sector 8",
      "lat": 28.571,
      "lon": 77.072,
      "aqi": 120.5,
      "firms_detections": 0,
      "photo_severity": 0.0,
      "hotspot_score": 0.12,
      "predicted_aqi_24h": 218.2
    },
    {
      "zone_id": "rohini",
      "name": "Rohini",
      "lat": 28.733,
      "lon": 77.12,
      "aqi": 132.5,
      "firms_detections": 0,
      "photo_severity": 0.0,
      "hotspot_score": 0.133,
      "predicted_aqi_24h": 152.2
    },
    {
      "zone_id": "okhla",
      "name": "Okhla Phase 2",
      "lat": 28.5355,
      "lon": 77.2726,
      "aqi": 115.5,
      "firms_detections": 0,
      "photo_severity": 0.0,
      "hotspot_score": 0.116,
      "predicted_aqi_24h": 214.9
    },
    {
      "zone_id": "wazirpur",
      "name": "Wazirpur",
      "lat": 28.6997,
      "lon": 77.165,
      "aqi": 121.5,
      "firms_detections": 0,
      "photo_severity": 0.0,
      "hotspot_score": 0.121,
      "predicted_aqi_24h": 140.7
    },
    {
      "zone_id": "vivek_vihar",
      "name": "Vivek Vihar",
      "lat": 28.6725,
      "lon": 77.3151,
      "aqi": 95.5,
      "firms_detections": 0,
      "photo_severity": 0.0,
      "hotspot_score": 0.096,
      "predicted_aqi_24h": 132.7
    },
    {
      "zone_id": "noida_sec62",
      "name": "Noida Sector 62",
      "lat": 28.6274,
      "lon": 77.363,
      "aqi": 92.5,
      "firms_detections": 0,
      "photo_severity": 0.0,
      "hotspot_score": 0.092,
      "predicted_aqi_24h": 130.9
    },
    {
      "zone_id": "gurugram_sec51",
      "name": "Gurugram Sector 51",
      "lat": 28.4425,
      "lon": 77.0722,
      "aqi": 210.5,
      "firms_detections": 0,
      "photo_severity": 0.0,
      "hotspot_score": 0.21,
      "predicted_aqi_24h": 296.4
    },
    {
      "zone_id": "ghaziabad_sanjay_nagar",
      "name": "Ghaziabad Sanjay Nagar",
      "lat": 28.6825,
      "lon": 77.4519,
      "aqi": 119.0,
      "firms_detections": 0,
      "photo_severity": 0.0,
      "hotspot_score": 0.119,
      "predicted_aqi_24h": 138.6
    }
  ]
}