{
  "hotspots": [
    {
      "zone_id": "anand_vihar",
      "name": "Anand Vihar",
      "lat": 28.6469,
      "lon": 77.3152,
      "aqi": 203.0,
      "firms_detections": 0,
      "photo_severity": 0.75,
      "hotspot_score": 0.353,
      "predicted_aqi_24h": 165.4
    },
    {
      "zone_id": "rk_puram",
      "name": "R.K. Puram",
      "lat": 28.5644,
      "lon": 77.177,
      "aqi": 154.0,
      "firms_detections": 0,
      "photo_severity": 0.0,
      "hotspot_score": 0.154,
      "predicted_aqi_24h": 194.7
    },
    {
      "zone_id": "punjabi_bagh",
      "name": "Punjabi Bagh",
      "lat": 28.6692,
      "lon": 77.131,
      "aqi": 195.5,
      "firms_detections": 0,
      "photo_severity": 0.0,
      "hotspot_score": 0.196,
      "predicted_aqi_24h": 153.4
    },
    {
      "zone_id": "ito",
      "name": "ITO",
      "lat": 28.6304,
      "lon": 77.2497,
      "aqi": 172.0,
      "firms_detections": 0,
      "photo_severity": 0.0,
      "hotspot_score": 0.172,
      "predicted_aqi_24h": 146.3
    },
    {
      "zone_id": "dwarka",
      "name": "Dwarka Sector 8",
      "lat": 28.571,
      "lon": 77.072,
      "aqi": 158.5,
      "firms_detections": 0,
      "photo_severity": 0.0,
      "hotspot_score": 0.159,
      "predicted_aqi_24h": 193.7
    },
    {
      "zone_id": "rohini",
      "name": "Rohini",
      "lat": 28.733,
      "lon": 77.12,
      "aqi": 169.0,
      "firms_detections": 0,
      "photo_severity": 0.0,
      "hotspot_score": 0.169,
      "predicted_aqi_24h": 143.6
    },
    {
      "zone_id": "okhla",
      "name": "Okhla Phase 2",
      "lat": 28.5355,
      "lon": 77.2726,
      "aqi": 135.0,
      "firms_detections": 0,
      "photo_severity": 0.0,
      "hotspot_score": 0.135,
      "predicted_aqi_24h": 172.6
    },
    {
      "zone_id": "wazirpur",
      "name": "Wazirpur",
      "lat": 28.6997,
      "lon": 77.165,
      "aqi": 200.0,
      "firms_detections": 0,
      "photo_severity": 0.0,
      "hotspot_score": 0.2,
      "predicted_aqi_24h": 160.6
    },
    {
      "zone_id": "vivek_vihar",
      "name": "Vivek Vihar",
      "lat": 28.6725,
      "lon": 77.3151,
      "aqi": null,
      "firms_detections": 0,
      "photo_severity": 0.0,
      "hotspot_score": 0.0,
      "predicted_aqi_24h": 132.7
    },
    {
      "zone_id": "noida_sec62",
      "name": "Noida Sector 62",
      "lat": 28.6274,
      "lon": 77.363,
      "aqi": 120.0,
      "firms_detections": 0,
      "photo_severity": 0.0,
      "hotspot_score": 0.12,
      "predicted_aqi_24h": 115.8
    },
    {
      "zone_id": "gurugram_sec51",
      "name": "Gurugram Sector 51",
      "lat": 28.4425,
      "lon": 77.0722,
      "aqi": null,
      "firms_detections": 0,
      "photo_severity": 0.0,
      "hotspot_score": 0.0,
      "predicted_aqi_24h": 296.4
    },
    {
      "zone_id": "ghaziabad_sanjay_nagar",
      "name": "Ghaziabad Sanjay Nagar",
      "lat": 28.6825,
      "lon": 77.4519,
      "aqi": 146.3,
      "firms_detections": 0,
      "photo_severity": 0.0,
      "hotspot_score": 0.146,
      "predicted_aqi_24h": 126.7
    }
  ]
}